name,lat,long,total,eng,oct7map
פסטיבל נובה,31.4014870534664,34.4724927048611,191,Nova festival,Nova
בארי,31.424513,34.492567,129,K?ibbutz Be'eri,Be'eri
כפר עזה,31.483416,34.532291,79,Kfar Aza,Kfar Aza
ניר עוז,31.309697,34.402075,53,Nir Oz,Nir Oz
מוצב נחל עוז,31.4792874887897,34.5015939038425,52,Nahal Oz Base,Nahal Oz Base
שדרות,31.522694,34.595581,52,Sderot,Sderot
צומת רעים,31.3880609362127,34.4510943485888,48,Re'im jct,
סמוך למפלסים,31.5048736098764,34.5641492047324,43,Near Miflasim,Mefalsim
אופקים,31.311337,34.622824,33,Ofakim,Ofakim
צומת שער הנגב,31.5083627179843,34.5865975081832,31,Sha'ar HaNegev jct,
צומת גמה,31.3812566120664,34.4472232110629,29,Gamma jct,
כיסופים,31.374545,34.398992,28,Kibbutz Kisufim,Kissufim
עלומים,31.450684,34.511386,27,Alumim,Alumim
צומת בארי,31.4299283474857,34.4971577980422,20,Shelter at Be'eri jct,
נתיב העשרה,31.572407,34.539322,18,Netiv HaAsara,Netiv HaAsara
חוף זיקים,31.6126901,34.5045404,18,Zikim Beach,Zikim Beach
רעים,31.3836193993611,34.4619630054181,18,Kibbutz Re'im,Re'im
חולית,31.230563,34.32734,17,Holit,Holit
נחל עוז,31.47268,34.497675,16,Kibbutz Nahal Oz,Nahal Oz
מוצב פגה,31.451442032419,34.4694931921028,14,Paga Base,Paga Post
מוצב כיסופים,31.3755033791164,34.4073817306006,14,Kisufim Base,Kissufim Base
בכניסה לעלומים,31.4510040473571,34.5167553851208,13,Near Alumim,
מוצב סופה,31.2402695741122,34.3362364083698,12,Sufa Base,Sufa Base
צומת מבטחים,31.256889,34.403065,12,Mivtahim jct,Mivtahim
מעבר ארז,31.5605566379382,34.5441659545204,10,Erez Checkpoint,Erez Checkpoint
נירים,31.33573,34.394087,8,Nirim,Nirim
מוצב יפתח,31.596972587333,34.5117547187511,8,Yiftah Base,
דרומית לגבים,31.4983622081798,34.5916508458874,8,South of Gevim,Gevim
מחנה אורים,31.3153804671977,34.5412076991259,8,Urim Base,Urim Base
מחנה רעים,31.3631573328565,34.4452834913286,7,Re'im Base,Re'im Base
מחנה זיקים,31.604753586258,34.5073326774338,7,Zikim Base,Zikim Base
כביש שער הנגב מפלסים,31.5039803105381,34.5777168985604,7,Sha’ar Hanegev Mefalsim road,
אנדרטת חץ שחור,31.507172,34.553013,6,Black Arrow Memorial,
יכיני,31.482205,34.598634,6,Yakhini,Yakhini
ניר יצחק,31.23604,34.356702,6,Nir Yitzhak,Nir Yitzhak
מבטחים,31.242423,34.407488,5,Mivtahim,
כרם שלום,31.228281,34.284559,5,Kerem Shalom,
"מו""פ דרום",31.2742733480027,34.3867808772305,4,MOP Darom,
יד מרדכי - נתיב העשרה,31.5770551315379,34.5528746410571,4,Yad Mordekhai-Netiv HaAsara,
עין השלושה,31.351722,34.403471,4,Ein HaShlosha,Ein HaShlosha
אבו קרינאת,31.2645372452125,35.0071586552229,4,Abu Qreinat,
"מש""א ארז",31.6054753165714,34.5024353281107,4,MASA Erez,
צומת אורים,31.317032810289,34.5289920555347,3,Urim jct,
צומת מעון,31.3135022215298,34.4391187940375,3,Maon jct,
ג'באליה,31.5300722770168,34.4797195421764,3,Jabalya,
"ביה""ח שיפא",31.5325563751117,34.4437725529408,3,Shifa Hospital,
בין ניר עוז לגבול,31.301722,34.373883,3,Between Nir Oz and the border,
נתיבות,31.423196,34.595254,3,Netivot,
כביש סעד - נחל עוז,31.4759196313343,34.5154388189858,3,Saad - Nahal Oz road,
סופה,31.238309,34.341987,3,Kibbutz Sufa,Sufa
מדרום לצומת גמה,31.37176,34.448987,3,South of Gamma jct,
ירי בשוגג בשג'אעיה,31.48884,34.463335,3,Friendly fire in Shejaiya,
מזרחית לצומת מעון,31.3116047876017,34.4541386307133,3,East of Ma'on jct,
מוצב הבית הלבן,31.3247965298534,34.401820034021,3,White House post,
צומת מגן,31.2972793626219,34.4329166789322,3,Magen jct,
פרי גן,31.222015,34.355936,3,Pri Gan,Pri Gan
צפונית לצומת שער הנגב,31.511625,34.585775,2,North of Sha’ar Hanegev jct,
מחנה הפליטים נוסייראת,31.4513545603622,34.3923942794335,2,Nuseirat Camp,
כוחלה,31.2748222335072,35.036018622148,2,Kokhla,Alba’at
מערבית לניר עם,31.517617,34.572724,2,West of Nir Am,Nir Am
מזרחית לרעים,31.3914842280969,34.4690553474635,2,East of Re’im,
צומת ניר יצחק,31.2325630422087,34.3565738232856,2,Nir Yitzhak jct,
מגן,31.298108,34.427059,2,Magen,Magen
כביש מפלסים - כפר עזה,31.4884088906255,34.5501481402354,2,Mefalsim-Kfar Aza road,
עמדה 91,31.42428,34.433753,2,post,
ירי בשוגג ליד כרם שלום,31.2195203120312,34.2890150993901,2,Friendly fire near Kerem Shalom,
מוצב ק2,31.5403394651369,34.5713086782205,2,post,
חאן יונס,31.3502525071482,34.3042056479206,2,Khan Yunis,
מזרחית לחניון רעים,31.396194,34.486645,2,East of Re’im Parking Lot (park),
כביש רעים - צומת מעון,31.3452361354348,34.4465779612038,2,Re'im-Maon jct road,
סמוך למחנה רעים,31.36234802117,34.450322508515,2,Near Re’im Base,
סמוך לארז,31.5635961931394,34.5566272845726,1,Near Erez,
בבירור,31.563745499879,34.4407886393767,1,Unknown,
כביש רעים - בארי,31.4050740370778,34.4792224231953,1,Re'im-Be'eri road,
כביש יכיני יושיביה,31.465305,34.593532,1,Yahini Yoshivya road,
בין סופה לחולית,31.2328012435022,34.3326614036071,1,Between Sufa and Holit,
ירי בשוגג ליד צומת ניצן,31.7052030735826,34.6185964491199,1,Friendly fire near Nitzan,
מזרחית לניר יצחק,31.2405323570803,34.3699266760462,1,East of Nir Yitzhak,
"רצועת עזה, לא פורסם מיקום מדוייק",31.4993044924959,34.4612057026481,1,"Gaza Strip, exact location unpublished",
תלמי יוסף,31.199958,34.363751,1,Talmei Yosef,Talmei Yosef
כפר אביב,31.831039,34.722577,1,Kfar aviv,Kfar Aviv
דרומית למבטחים,31.2351360442646,34.4087154607471,1,South of Mivtahim,
עמיעוז,31.248463,34.413404,1,Amioz,
דיר אל בלח,31.4204757055826,34.3597029755557,1,Deir al Balah,
אשקלון,31.6687885,34.5742523,1,Ashkelon,
צומת הבית הלבן,31.3311539950811,34.4077891539946,1,White House jct,
סמוך לכיסופים,31.36914,34.39315,1,Near Kisufim,
סמוך לכביש 2424,31.37281,34.401653,1,Near road 2424,
ערערה בנגב,31.160927,35.019757,1,Ar'ara,Arara
כביש רעים - אורים,31.3419613674272,34.5051451093551,1,Re'im-Urim road,
מוצב כרם שלום,31.2305456661852,34.2868788433916,1,Kerem Shalom Base,
סמוך לרעים,31.3852124427032,34.4538423644134,1,Near Re'im,
צפונית לכרם שלום,31.2396494649759,34.2934079740074,1,North of Kerem Shalom,
סמוך לצומת מבטחים,31.2545616995774,34.3973505684882,1,Near Mivtahim jct,
סמוך למוצב כיסופים,31.3761346060901,34.4023832767583,1,Near Kisufim Base,
שדות יכיני,31.494184474791,34.5963825869542,1,Yakhini Fields,
מזרחית למחנה עופר,31.8661249181297,35.191302850631,1,East of Ofer Camp,
ירי בשוגג בדרך לנתיב העשרה,31.5711925456624,34.5470178881721,1,Friendly fire near Netiv HaAsara,
צומת יכיני,31.4805599847471,34.5918292048947,1,Yakhini jct,
אבו גוש,31.8061517274756,35.1104181445333,1,Abu Gosh,
ירי בשוגג ליד מבקיעים,31.6200665069165,34.5808941844254,1,Friendly fire near Mavki'im,
ישע,31.2474064229403,34.4030848019845,1,Yesha,Yesha
מפגש יד מרדכי,31.5881364086797,34.5644676212696,1,Mifgash Yad Mordekhay,
מערבית לזיקים,31.606694750743,34.513296484211,1,West of Zikim,
ירי בשוגג בעלומים,31.4534977111291,34.5171100065418,1,Friendly fire in Alumim,
מסיבת פסיידאק,31.3417157186523,34.4161349190368,0,Psyduck Party,Psyduck
